[
  {
    "name": "Desert Attic Pros",
    "place_id": "ChIJtest_desert_attic_pros",
    "google_id": "0xtest1",
    "full_address": "1234 E Camelback Rd, Phoenix, AZ 85014",
    "phone": "+16025551001",
    "site": "https://desertatticpros.example.com",
    "rating": 4.8,
    "reviews": 237,
    "latitude": 33.5092,
    "longitude": -112.0475,
    "city": "Phoenix",
    "state": "Arizona",
    "description": "Full-service attic cleaning, insulation removal, and rodent cleanup in the Phoenix metro area.",
    "subtypes": "Insulation contractor, Pest control service",
    "working_hours": {"Monday": "7AM-5PM", "Tuesday": "7AM-5PM", "Wednesday": "7AM-5PM", "Thursday": "7AM-5PM", "Friday": "7AM-5PM", "Saturday": "8AM-2PM", "Sunday": "Closed"}
  },
  {
    "name": "Arizona Attic Masters",
    "place_id": "ChIJtest_az_attic_masters",
    "google_id": "0xtest2",
    "full_address": "5678 N Scottsdale Rd, Scottsdale, AZ 85250",
    "phone": "+14805551002",
    "site": "https://azatticmasters.example.com",
    "rating": 4.5,
    "reviews": 89,
    "latitude": 33.4955,
    "longitude": -111.9260,
    "city": "Scottsdale",
    "state": "Arizona",
    "description": "Expert attic restoration and decontamination services.",
    "subtypes": "General contractor, Insulation contractor",
    "working_hours": {"Monday": "8AM-6PM", "Tuesday": "8AM-6PM", "Wednesday": "8AM-6PM", "Thursday": "8AM-6PM", "Friday": "8AM-6PM", "Saturday": "Closed", "Sunday": "Closed"}
  },
  {
    "name": "Valley Critter Control & Attic Clean",
    "place_id": "ChIJtest_valley_critter",
    "google_id": "0xtest3",
    "full_address": "910 W Indian School Rd, Phoenix, AZ 85013",
    "phone": "+16025551003",
    "rating": 4.2,
    "reviews": 156,
    "latitude": 33.4942,
    "longitude": -112.0800,
    "city": "Phoenix",
    "state": "AZ",
    "description": "Rodent removal, attic decontamination, and insulation replacement.",
    "subtypes": ["Pest control service", "Insulation contractor"],
    "working_hours": {"Monday": "6AM-6PM", "Tuesday": "6AM-6PM", "Wednesday": "6AM-6PM", "Thursday": "6AM-6PM", "Friday": "6AM-6PM", "Saturday": "7AM-3PM", "Sunday": "Closed"}
  },
  {
    "name": "Tucson Attic Solutions",
    "place_id": "ChIJtest_tucson_attic",
    "google_id": "0xtest4",
    "full_address": "2200 E Speedway Blvd, Tucson, AZ 85719",
    "phone": "+15205551004",
    "site": "https://tucsonattic.example.com",
    "rating": 4.6,
    "reviews": 64,
    "latitude": 32.2364,
    "longitude": -110.9384,
    "city": "Tucson",
    "state": "Arizona",
    "description": "Comprehensive attic cleaning and mold remediation for Southern Arizona.",
    "subtypes": "General contractor",
    "working_hours": {"Monday": "8AM-5PM", "Tuesday": "8AM-5PM", "Wednesday": "8AM-5PM", "Thursday": "8AM-5PM", "Friday": "8AM-5PM"}
  },
  {
    "name": "",
    "place_id": "ChIJtest_invalid_no_name",
    "full_address": "999 Missing Name Ave, Phoenix, AZ 85001",
    "phone": "+16025559999",
    "rating": 3.0,
    "reviews": 5,
    "latitude": 33.45,
    "longitude": -112.07,
    "city": "Phoenix",
    "state": "Arizona"
  },
  {
    "name": "No Phone Company",
    "place_id": "ChIJtest_invalid_no_phone",
    "full_address": "888 No Phone Blvd, Phoenix, AZ 85001",
    "rating": 4.0,
    "reviews": 10,
    "latitude": 33.45,
    "longitude": -112.07,
    "city": "Phoenix",
    "state": "Arizona"
  }
]
